[{"title":"Cathedrale Saint-Etienne, Agde","position":{"lng":3.4692,"lat":43.3139},"id":0},
 {"title":"Chateau Laurens","position":{"lng":3.4716,"lat":43.3179},"id":1},
 {"title":"Ecluse Ronde, Agde","position":{"lng":3.4674,"lat":43.3202},"id":2},
 {"title":"Eglise Saint-Andre, Agde","position":{"lng":3.47,"lat":43.3117},"id":3},
 {"title":"Fort Brescou","position":{"lng":3.5019,"lat":43.2631},"id":4},
 {"title":"Glaciere Communale, Agde","position":{"lng":3.471283,"lat":43.313813},"id":5},
 {"title":"Hotel Malaval","position":{"lng":3.4691158000001,"lat":43.3126395},"id":6},
 {"title":"Hotel Viguier-Guerin","position":{"lng":3.4706462,"lat":43.3142917},"id":7},
 {"title":"Hotel Ville, Agde","position":{"lng":3.4684647,"lat":43.3132999},"id":8},
 {"title":"Maison Renaissance, Agde","position":{"lng":3.47055,"lat":43.314117},"id":11},
 {"title":"Palais Episcopal, Agde","position":{"lng":3.4692764282227,"lat":43.314253711747},"id":12},
 {"title":"Pont Saint-Joseph, Agde","position":{"lng":3.447103,"lat":43.31683},"id":13},
 {"title":"Remparts, Agde","position":{"lng":3.4713,"lat":43.3147},"id":14},
 {"title":"Tour Anglais, Agde","position":{"lng":3.503464,"lat":43.297526},"id":15},
 {"title":"Chateau Agel","position":{"lng":2.8539,"lat":43.3386},"id":16},
 {"title":"Chapelle Morcairol","position":{"lng":3.0933,"lat":43.5792},"id":17},
 {"title":"Eglise Saint-Martin Alignan-Vent","position":{"lng":3.3433,"lat":43.4709},"id":18},
 {"title":"Tour medievale Alignan-Vent","position":{"lng":3.3416,"lat":43.4695},"id":19},
 {"title":"Abbatiale Saint-Sauveur Aniane","position":{"lng":3.5861,"lat":43.6844},"id":20},
 {"title":"Abbaye Aniane","position":{"lng":3.5894,"lat":43.6836},"id":21},
 {"title":"Chapelle Penitents Aniane","position":{"lng":3.585926,"lat":43.684466},"id":22},
 {"title":"Hotel Ville Aniane","position":{"lng":3.5867,"lat":43.6845},"id":23},
 {"title":"Pont Diable Aniane","position":{"lng":3.5574,"lat":43.7076},"id":24},
 {"title":"Chateau Arboras","position":{"lng":3.4856,"lat":43.7117},"id":25},
 {"title":"Chapelle Argelliers","position":{"lng":3.720768,"lat":43.697278},"id":26},
 {"title":"Eglise Saint-Etienne Argelliers","position":{"lng":3.673942,"lat":43.697322},"id":27},
 {"title":"Eglise Saint-Julien Aspiran","position":{"lng":3.4501361846924,"lat":43.5659719713},"id":28},
 {"title":"Chateau Assas","position":{"lng":3.8976144790649,"lat":43.701536063833},"id":29},
 {"title":"Eglise Saint-Martial Assas","position":{"lng":3.898129,"lat":43.7014},"id":30},
 {"title":"Chapelle Saint-Martin Cardonnet","position":{"lng":3.643046,"lat":43.577317},"id":31},
 {"title":"Chateau Aumelas","position":{"lng":3.5992,"lat":43.6039},"id":32},
 {"title":"Oppidum Proch-Ba","position":{"lng":3.461328,"lat":43.47357},"id":33},
 {"title":"Eglise Saint-Julien-Sainte-Basilisse Baillargues","position":{"lng":4.013663,"lat":43.660836},"id":34},
 {"title":"Aqueduc Balaruc","position":{"lng":3.685157,"lat":43.451455},"id":35},
 {"title":"Basilique Balaruc-Bains","position":{"lng":3.678462,"lat":43.440554},"id":36},
 {"title":"Eglise Notre-Dame-Aix Balaruc-Bains","position":{"lng":3.681646,"lat":43.440936},"id":37},
 {"title":"Chateau Beaufort","position":{"lng":2.7589,"lat":43.2992},"id":39},
 {"title":"Chapelle Notre-Dame-Pitie Beaulieu","position":{"lng":4.0288,"lat":43.7297},"id":40},
 {"title":"Chapelle Saint-Raphael Bastide","position":{"lng":3.1363,"lat":43.5915},"id":41},
 {"title":"Eglise Saint-Pierre Bessan","position":{"lng":3.4271,"lat":43.3599},"id":42},
 {"title":"Hotel Berard Montalet","position":{"lng":3.4270544,"lat":43.361062},"id":43},
 {"title":"Moulin Bessan","position":{"lng":3.4452,"lat":43.3624},"id":44},
 {"title":"Enceinte Boisseron","position":{"lng":4.082376,"lat":43.760739},"id":45},
 {"title":"Pont Romain Boisseron","position":{"lng":4.081249,"lat":43.761703},"id":46},
 {"title":"Chateau Cazilhac","position":{"lng":3.1672,"lat":43.6936},"id":47},
 {"title":"Chapelle Saint-Etienne Issensac","position":{"lng":3.7008,"lat":43.8433},"id":48},
 {"title":"Eglise Saint-Nazaire-Saint-Celse Brissac","position":{"lng":3.7021,"lat":43.8778},"id":49},
 {"title":"Pont Saint-Etienne Issensac","position":{"lng":3.701,"lat":43.8441},"id":50},
 {"title":"Chateau Buzignargues","position":{"lng":4.0051898,"lat":43.771532},"id":51},
 {"title":"Eglise Saint-Nazaire-Saint-Celse Buzignargues","position":{"lng":4.005,"lat":43.7707},"id":52},
 {"title":"Eglise Saints-Come-Damien Candillargues","position":{"lng":4.0694689750671,"lat":43.619766735202},"id":53},
 {"title":"Chateau Archeveques Narbonne","position":{"lng":3.0453,"lat":43.3297},"id":54},
 {"title":"Collegiale Saint-Etienne Capestang","position":{"lng":3.044,"lat":43.3281},"id":55},
 {"title":"Epanchoir Fer Mulet","position":{"lng":3.015412,"lat":43.329392},"id":56},
 {"title":"Maison Baisse","position":{"lng":3.044948,"lat":43.328017},"id":57},
 {"title":"Maison Balat","position":{"lng":3.044811,"lat":43.327903},"id":58},
 {"title":"Chateau Castelnau-Guers","position":{"lng":3.438,"lat":43.4354},"id":59},
 {"title":"Chateau Verchant","position":{"lng":3.9019,"lat":43.6369},"id":60},
 {"title":"Eglise Saint-Jean-Baptiste Castelnau-Lez","position":{"lng":3.8949,"lat":43.6331},"id":61},
 {"title":"Glaciere Castelnau-Lez","position":{"lng":3.8972,"lat":43.6312},"id":62},
 {"title":"Voie Domitienne","position":{"lng":3.9248,"lat":43.6471},"id":63},
 {"title":"Aqueduc Castries","position":{"lng":3.985851,"lat":43.679048},"id":64},
 {"title":"Chateau Castries","position":{"lng":3.9822,"lat":43.6797},"id":65},
 {"title":"Eglise Invention-Saint-Etienne Castries","position":{"lng":3.98617,"lat":43.67756},"id":66},
 {"title":"Pont Cadoule Castries","position":{"lng":3.9814,"lat":43.6714},"id":67},
 {"title":"Eglise Notre-Dame Caunette","position":{"lng":2.7757,"lat":43.3536},"id":68},
 {"title":"Piles Causses-Veyran","position":{"lng":3.0983,"lat":43.4658},"id":69},
 {"title":"Eglise Saint-Gervais Caux","position":{"lng":3.368686,"lat":43.506974},"id":70},
 {"title":"Abbaye Sainte-Marie Fontcaude","position":{"lng":3.055,"lat":43.4178},"id":72},
 {"title":"Eglise Saint-Amand Cazedarnes","position":{"lng":3.0313,"lat":43.4273},"id":73},
 {"title":"Norias Cazilhac","position":{"lng":3.7078,"lat":43.9243},"id":74},
 {"title":"Chateau Savignac-Haut","position":{"lng":3.1022,"lat":43.3933},"id":75},
 {"title":"Eglise Saint-Saturnin Cazouls-Beziers","position":{"lng":3.101369,"lat":43.392201},"id":76},
 {"title":"Eglise Saint-Vincent Savignac","position":{"lng":3.123813,"lat":43.415772},"id":77},
 {"title":"Chateau Cazouls-Herault","position":{"lng":3.4581,"lat":43.5072},"id":78},
 {"title":"Croix Cimetiere Cebazan","position":{"lng":2.9781532287598,"lat":43.403644434426},"id":79},
 {"title":"Eglise Rocozels","position":{"lng":3.0866,"lat":43.8149},"id":80},
 {"title":"Eglise Saint-Jean-Baptiste Ceilhes","position":{"lng":3.1115,"lat":43.8031},"id":81},
 {"title":"Eglise Saint-Pierre-Salle Cessenon-Orb","position":{"lng":3.0489,"lat":43.4493},"id":82},
 {"title":"Chapelle Saint-Germain Cesseras","position":{"lng":2.6942,"lat":43.3247},"id":83},
 {"title":"Chapelle Saint-Salvy","position":{"lng":2.7218,"lat":43.3224},"id":84},
 {"title":"Dolmen Cigaliere","position":{"lng":2.7221,"lat":43.3356},"id":85},
 {"title":"Eglise Saint-Genies-Rome Cesseras","position":{"lng":2.7133119106293,"lat":43.325606949103},"id":86},
 {"title":"Grotte Aldene","position":{"lng":2.6984,"lat":43.3539},"id":87},
 {"title":"Chapelle Notre-Dame Hortus","position":{"lng":3.4688,"lat":43.643},"id":88},
 {"title":"Ermitage Saint-Pierre Leneyrac","position":{"lng":3.443326,"lat":43.655282},"id":89},
 {"title":"Tour Leneyrac","position":{"lng":3.443739,"lat":43.655201},"id":90},
 {"title":"Eglise Saint-Antoine Clapiers","position":{"lng":3.8888,"lat":43.6573},"id":91},
 {"title":"Eglise Saint-Felix-Gerone Claret","position":{"lng":3.9054250717163,"lat":43.86250506226},"id":92},
 {"title":"Chapelle Couvent Recollets Clermont-Herault","position":{"lng":3.437302,"lat":43.628795},"id":93},
 {"title":"Chapelle Notre-Dame Peyrou","position":{"lng":3.4108,"lat":43.6194},"id":94},
 {"title":"Chapelle Penitents Clermont-Herault","position":{"lng":3.431527,"lat":43.625982},"id":95},
 {"title":"Chateau Guilhem","position":{"lng":3.4278,"lat":43.6297},"id":96},
 {"title":"Collegiale Saint-Paul Clermont-Herault","position":{"lng":3.4307,"lat":43.627},"id":97},
 {"title":"Couvent Notre-Dame Gorjan","position":{"lng":3.4297,"lat":43.6293},"id":98},
 {"title":"Grange Verny","position":{"lng":3.4646,"lat":43.6007},"id":99},
 {"title":"Maison Brives","position":{"lng":3.4302,"lat":43.6287},"id":101},
 {"title":"Monument Morts Clermont-Herault","position":{"lng":3.4357,"lat":43.6264},"id":102},
 {"title":"Donjon Colombieres-Orb","position":{"lng":2.999021,"lat":43.58031},"id":103},
 {"title":"Tunnel-aqueduc Drainage Etang Colombiers Montady","position":{"lng":3.1267,"lat":43.3072},"id":104},
 {"title":"Aqueduc Beziers","position":{"lng":3.2121,"lat":43.4011},"id":105},
 {"title":"Croix Cros","position":{"lng":3.3639,"lat":43.8708},"id":106},
 {"title":"Eglise Sainte-Eulalie Cruzy","position":{"lng":2.9405,"lat":43.3559},"id":107},
 {"title":"Eglise Saint-Andre Valquieres","position":{"lng":3.2344,"lat":43.6672},"id":108},
 {"title":"Eglise Saint-Etienne Dio","position":{"lng":3.2123,"lat":43.6693},"id":109},
 {"title":"Eglise Saint-Jacques Fabregues","position":{"lng":3.7762,"lat":43.5519},"id":110},
 {"title":"Oppidum Roque","position":{"lng":3.8089,"lat":43.5553},"id":111},
 {"title":"Ensemble Marbrier Moulin Biot","position":{"lng":2.5597,"lat":43.345},"id":112},
 {"title":"Grotte Camprafaud","position":{"lng":2.9034,"lat":43.4578},"id":113},
 {"title":"Cimetiere Eglise Fontes","position":{"lng":3.3782,"lat":43.5427},"id":114},
 {"title":"Eglise Saint-Hippolyte Fontes","position":{"lng":3.3775,"lat":43.5424},"id":115},
 {"title":"Aqueduc Beziers","position":{"lng":3.2452,"lat":43.4969},"id":116},
 {"title":"Chateau Fozieres","position":{"lng":3.3578,"lat":43.7525},"id":117},
 {"title":"Chapelle Penitents Frontignan","position":{"lng":3.7549,"lat":43.4471},"id":118},
 {"title":"Eglise Saint-Paul Frontignan","position":{"lng":3.7552,"lat":43.4474},"id":119},
 {"title":"Residence Eveques Beziers","position":{"lng":3.2738449999999,"lat":43.514032},"id":122},
 {"title":"Abbaye Saint-Felix-Montceau","position":{"lng":3.7262,"lat":43.4873},"id":123},
 {"title":"Chemin Croix Notre-Dame-Grace","position":{"lng":3.5551,"lat":43.6481},"id":124},
 {"title":"Eglise Saint-Pierre Gignac","position":{"lng":3.5523,"lat":43.6522},"id":125},
 {"title":"Hospice Gignac","position":{"lng":3.550993,"lat":43.652465},"id":126},
 {"title":"Hotel Laures","position":{"lng":3.5500860214233,"lat":43.652355863611},"id":127},
 {"title":"Mas Rieussec","position":{"lng":3.564,"lat":43.6577},"id":128},
 {"title":"Pont Gignac","position":{"lng":3.5357,"lat":43.6537},"id":129},
 {"title":"Site Castellas","position":{"lng":3.5507,"lat":43.6508},"id":130},
 {"title":"Tour Grand-Travers","position":{"lng":4.037965,"lat":43.560501},"id":131},
 {"title":"Eglise Saint-Michel Guzargues","position":{"lng":3.924222,"lat":43.721882},"id":132},
 {"title":"Abbaye Joncels","position":{"lng":3.194,"lat":43.7373},"id":133},
 {"title":"Chateau Jonquieres","position":{"lng":3.4764,"lat":43.6761},"id":134},
 {"title":"Chateau Caunelles","position":{"lng":3.8106,"lat":43.6139},"id":135},
 {"title":"Arenes Lansargues","position":{"lng":4.0771,"lat":43.6511},"id":136},
 {"title":"Eglise Saint-Martin Lansargues","position":{"lng":4.0731,"lat":43.6531},"id":137},
 {"title":"Château Laroque","position":{"lng":3.723795,"lat":43.922455},"id":138},
 {"title":"Chapelle Saint-Jean de Laroque","position":{"lng":3.723987,"lat":43.922482},"id":139},
 {"title":"Fabrique Chaux Laroque","position":{"lng":3.7265,"lat":43.9272},"id":140},
 {"title":"Grotte Vache","position":{"lng":3.733,"lat":43.9173},"id":141},
 {"title":"Eglise Saint-Laurent lattes","position":{"lng":3.9023780822754,"lat":43.567876550114},"id":142},
 {"title":"Site Archeologique lattara","position":{"lng":3.9085,"lat":43.5662},"id":143},
 {"title":"Chateau Grezan","position":{"lng":3.1945,"lat":43.50446},"id":144},
 {"title":"Chateau Lavalette","position":{"lng":3.272217,"lat":43.691685},"id":145},
 {"title":"Chateau Engarran","position":{"lng":3.8069,"lat":43.5978},"id":146},
 {"title":"Chateau Eveques Montpellier","position":{"lng":3.8061,"lat":43.5864},"id":147},
 {"title":"Eglise Saint-Pierre Lespignan","position":{"lng":3.1749,"lat":43.2707},"id":148},
 {"title":"Villa Gallo-romaine Lespignan","position":{"lng":3.171951,"lat":43.256712},"id":149},
 {"title":"Chateau Lezignan-Cebe","position":{"lng":3.439,"lat":43.4934},"id":150},
 {"title":"Chateau Ribaute","position":{"lng":3.2378,"lat":43.4194},"id":151},
 {"title":"Eglise Saint-Etienne Liviniere","position":{"lng":2.6352,"lat":43.4164},"id":152},
 {"title":"Sanctuaire Notre-Dame Spasme","position":{"lng":2.6399,"lat":43.3116},"id":153},
 {"title":"Cathedrale Saint-Fulcran Lodeve","position":{"lng":3.3172,"lat":43.7319},"id":154},
 {"title":"Eglise Saint-Pierre Lodeve","position":{"lng":3.3224,"lat":43.7308},"id":155},
 {"title":"Ensemble Episcopal Lodeve","position":{"lng":3.3173,"lat":43.7325},"id":156},
 {"title":"Grotte Treviols","position":{"lng":3.328,"lat":43.7067},"id":157},
 {"title":"Halles Lodeve","position":{"lng":3.3212,"lat":43.7305},"id":158},
 {"title":"Hotel Albouy","position":{"lng":3.3197117,"lat":43.7309863},"id":159},
 {"title":"Hotel Benoit Prunarede","position":{"lng":3.4574580999999,"lat":43.6627733},"id":160},
 {"title":"Hotel Fleury","position":{"lng":3.3199,"lat":43.7318},"id":161},
 {"title":"Hotel Salze","position":{"lng":3.3211541175842,"lat":43.7304914555},"id":162},
 {"title":"Mausolee Romain Lodeve","position":{"lng":3.294842,"lat":43.73272},"id":167},
 {"title":"Monument Morts Lodeve","position":{"lng":3.3173,"lat":43.7328},"id":168},
 {"title":"Pont Montifort","position":{"lng":3.3175,"lat":43.7301},"id":169},
 {"title":"Eglise Sainte-Cecile Loupian","position":{"lng":3.6162,"lat":43.4479},"id":170},
 {"title":"Eglise Saint-Hippolyte Loupian","position":{"lng":3.6145,"lat":43.4492},"id":171},
 {"title":"Villa Gallo-romaine Loupian","position":{"lng":3.6146,"lat":43.441},"id":173},
 {"title":"Chapelle Notre-Dame Nize","position":{"lng":3.224597,"lat":43.710224},"id":174},
 {"title":"Chapelle Saint-Georges Lunas","position":{"lng":3.198361,"lat":43.705938},"id":175},
 {"title":"Eglise Saint-Pancrace Lunas","position":{"lng":3.1937384605408,"lat":43.70669384613},"id":176},
 {"title":"Chateau Gaucelm","position":{"lng":4.134287238121,"lat":43.674727842198},"id":177},
 {"title":"Maison Philippe Bel Lunel","position":{"lng":4.1344,"lat":43.6743},"id":178},
 {"title":"Chateau Lunel-Viel","position":{"lng":4.092962,"lat":43.679442},"id":179},
 {"title":"Eglise Saint-Laurent Magalas","position":{"lng":3.222352,"lat":43.471998},"id":180},
 {"title":"Oppidum Magalas","position":{"lng":3.2297,"lat":43.4756},"id":181},
 {"title":"Cave Cooperative Vignerons Libres","position":{"lng":3.1544698,"lat":43.3662472},"id":182},
 {"title":"Chateau Perdiguier","position":{"lng":3.170733,"lat":43.367651},"id":183},
 {"title":"Chateau Margon","position":{"lng":3.306,"lat":43.4864},"id":184},
 {"title":"Arenes Marsillargues","position":{"lng":4.178549,"lat":43.665129},"id":185},
 {"title":"Chateau Marsillargues","position":{"lng":4.178,"lat":43.6655},"id":186},
 {"title":"Eglise Transfiguration-Seigneur Marsillargues","position":{"lng":4.179005,"lat":43.664931},"id":187},
 {"title":"Hotel Mourgue","position":{"lng":4.179642,"lat":43.663757},"id":188},
 {"title":"Eglise Saint-Gerard Mas-Londres","position":{"lng":3.7522,"lat":43.7821},"id":189},
 {"title":"Aven Incineration Suquet","position":{"lng":3.7906,"lat":43.7377},"id":190},
 {"title":"Chateau Comtes-eveques Melgueil","position":{"lng":4.010764,"lat":43.615041},"id":191},
 {"title":"Motte Feodale Mauguio","position":{"lng":4.0098,"lat":43.6155},"id":192},
 {"title":"Chateau Maureilhan","position":{"lng":3.1201,"lat":43.359},"id":193},
 {"title":"Eglise Saint-Baudile Maureilhan","position":{"lng":3.120347,"lat":43.35845},"id":194},
 {"title":"Eglise Saint-Pierre Merifons","position":{"lng":3.2851,"lat":43.6337},"id":195},
 {"title":"Vestiges Archéologiques Pallas","position":{"lng":3.5966,"lat":43.45},"id":196},
 {"title":"Citadelle Minerve","position":{"lng":2.7465,"lat":43.3541},"id":197},
 {"title":"Dolmen Bruneau","position":{"lng":2.7116,"lat":43.3653},"id":198},
 {"title":"Dolmen Tumulus Bois-Bas","position":{"lng":2.6791,"lat":43.3673},"id":199},
 {"title":"Eglise Saint-Etienne Minerve","position":{"lng":2.746,"lat":43.3545},"id":200},
 {"title":"Chapelle Saint-Roch Mons","position":{"lng":2.9682,"lat":43.5583},"id":201},
 {"title":"Chateau Tour","position":{"lng":3.136996,"lat":43.339611},"id":202},
 {"title":"Tour Montady","position":{"lng":3.118816,"lat":43.329591},"id":203},
 {"title":"chapelle Penitents Montagnac","position":{"lng":3.481691,"lat":43.481121},"id":204},
 {"title":"Chateau Lavagnac","position":{"lng":3.47494,"lat":43.50914},"id":205},
 {"title":"Eglise Saint-Andre Montagnac","position":{"lng":3.4843,"lat":43.4804},"id":206},
 {"title":"Hotel Comtes Brignac","position":{"lng":3.4843,"lat":43.4794},"id":207},
 {"title":"Vieux Pont Herault Montagnac","position":{"lng":3.4456,"lat":43.4747},"id":208},
 {"title":"Chateau Montarnaud","position":{"lng":3.695475,"lat":43.648815},"id":209},
 {"title":"Chapelle Notre-Dame-Fort Montarnaud","position":{"lng":3.695874,"lat":43.648742},"id":210},
 {"title":"Chateau Montlaur","position":{"lng":3.9708,"lat":43.75407},"id":211},
 {"title":"Eglise Saint-Pierre Montbazin","position":{"lng":3.6938,"lat":43.5162},"id":212},
 {"title":"Forum Domitii Montbazin","position":{"lng":3.6983,"lat":43.5115},"id":213},
 {"title":"Porte Ville Montbazin","position":{"lng":3.6928,"lat":43.5156},"id":214},
 {"title":"Eglise Sainte-Eulalie Montblanc","position":{"lng":3.3672,"lat":43.3973},"id":215},
 {"title":"Chateau archeveques Narbonne","position":{"lng":3.0299,"lat":43.2948},"id":216},
 {"title":"Aqueduc Saint-Clement","position":{"lng":3.857,"lat":43.6536},"id":217},
 {"title":"Chateau Montferrier-Lez","position":{"lng":3.8612,"lat":43.6667},"id":218},
 {"title":"Maison Ursulines","position":{"lng":4.0405,"lat":43.6489},"id":220},
 {"title":"Eglise Saint-Jean Murviel-Beziers","position":{"lng":3.144,"lat":43.4399},"id":221},
 {"title":"Eglise Saint-Jean-Baptiste Murviel-Montpellier","position":{"lng":3.7367,"lat":43.6042},"id":222},
 {"title":"Oppidum Castellas","position":{"lng":3.73462,"lat":43.609069},"id":223},
 {"title":"Chapelle Notre-Dame-Misericorde Nissan-lez-Enserune","position":{"lng":3.1392,"lat":43.2991},"id":224},
 {"title":"Eglise Saint-Saturnin Nissan-Enserune","position":{"lng":3.1272,"lat":43.292},"id":225},
 {"title":"Oppidum Enserune","position":{"lng":3.1106,"lat":43.3097},"id":226},
 {"title":"Tunnel-aqueduc Drainage Etang Colombiers Montady","position":{"lng":3.1263,"lat":43.3077},"id":227},
 {"title":"Chateau Nizas","position":{"lng":3.408,"lat":43.5124},"id":228},
 {"title":"Chateau Londres","position":{"lng":3.7771,"lat":43.8256},"id":229},
 {"title":"Eglise Notre-Dame Notre-Dame-Londres","position":{"lng":3.7775,"lat":43.8258},"id":230},
 {"title":"Chateau Lauzieres","position":{"lng":3.293289,"lat":43.661399},"id":231},
 {"title":"Dolmens Toucou","position":{"lng":3.2994,"lat":43.6721},"id":232},
 {"title":"Eglise Saint-Laurent Olargues","position":{"lng":2.9126,"lat":43.5578},"id":233},
 {"title":"Peiro Escrito","position":{"lng":2.91,"lat":43.529},"id":234},
 {"title":"Pont Diable Olargues","position":{"lng":2.9115,"lat":43.557},"id":235},
 {"title":"Cafe Plana","position":{"lng":2.7294,"lat":43.2845},"id":236},
 {"title":"Ecluses Olonzac","position":{"lng":2.7387,"lat":43.2698},"id":237},
 {"title":"Oppidum Olonzac","position":{"lng":2.7556,"lat":43.2575},"id":238},
 {"title":"Chateau Pegairolles-Escalette","position":{"lng":3.3226,"lat":43.803},"id":239},
 {"title":"Maison Vergnes","position":{"lng":3.3965,"lat":43.5755},"id":240},
 {"title":"Chateau Pezenes-Mines","position":{"lng":3.2522,"lat":43.5893},"id":241},
 {"title":"Abbaye Vignogoul","position":{"lng":3.7625,"lat":43.5853},"id":242},
 {"title":"Chateau Comte Turenne","position":{"lng":3.7616,"lat":43.5819},"id":243},
 {"title":"Ensemble Medieval Pignan","position":{"lng":3.7615,"lat":43.5823},"id":244},
 {"title":"Domaine Regismont","position":{"lng":3.1,"lat":43.3057},"id":245},
 {"title":"Eglise Saint-Cyr-Sainte-Julitte Pomerols","position":{"lng":3.4975,"lat":43.3906},"id":246},
 {"title":"Eglise Saint-Felix Portiragnes","position":{"lng":3.335,"lat":43.3029},"id":247},
 {"title":"Eglise Sainte-Catherine-Alexandrie Pouget","position":{"lng":3.525595,"lat":43.592227},"id":248},
 {"title":"Eglise Saint-Jacques Pouget","position":{"lng":3.523162,"lat":43.592413},"id":249},
 {"title":"Chateau Garenne","position":{"lng":3.6721,"lat":43.4841},"id":250},
 {"title":"Chateau Montlaur","position":{"lng":3.671,"lat":43.4888},"id":251},
 {"title":"Maison Vinas","position":{"lng":3.6699,"lat":43.4886},"id":252},
 {"title":"Presbytere Poussan","position":{"lng":3.6711,"lat":43.4893},"id":253},
 {"title":"Enceinte Prades-Lez","position":{"lng":3.8624,"lat":43.6983},"id":254},
 {"title":"Croix Carrefour Puech","position":{"lng":3.31734,"lat":43.73164},"id":256},
 {"title":"Eglise Saint-Sylvestre Montcalmes","position":{"lng":3.592671,"lat":43.714582},"id":257},
 {"title":"Chateau Puilacher","position":{"lng":3.5068,"lat":43.568},"id":258},
 {"title":"Chateau Puimisson","position":{"lng":3.2058,"lat":43.4397},"id":259},
 {"title":"Aqueduc Beziers","position":{"lng":3.2162,"lat":43.4587},"id":260},
 {"title":"Chateau Puissalicon","position":{"lng":3.236,"lat":43.4582},"id":261},
 {"title":"Tour Romane Puissalicon","position":{"lng":3.2236,"lat":43.4562},"id":262},
 {"title":"Cafe marche","position":{"lng":3.0393,"lat":43.368},"id":263},
 {"title":"Chateau Puisserguier","position":{"lng":3.0385,"lat":43.3682},"id":264},
 {"title":"Eolienne Bollee Quarante","position":{"lng":2.9935,"lat":43.3518},"id":265},
 {"title":"Chateau Roquette","position":{"lng":3.819246,"lat":43.79291},"id":266},
 {"title":"Dolmen Lamalou","position":{"lng":3.7996,"lat":43.8242},"id":267},
 {"title":"Abbaye Cassan","position":{"lng":3.2881,"lat":43.5097},"id":268},
 {"title":"Chapelle Saint-Nazaire Roujan","position":{"lng":3.3169,"lat":43.4921},"id":269},
 {"title":"Eglise Saint-Laurent Roujan","position":{"lng":3.3104,"lat":43.5084},"id":270},
 {"title":"Borne Milliaire Saint-Aunes","position":{"lng":3.9659,"lat":43.6366},"id":271},
 {"title":"Chateau Saint-Bauzille-Putois","position":{"lng":3.736526,"lat":43.894595},"id":272},
 {"title":"Abbaye Saint-Chinian","position":{"lng":2.946318,"lat":43.421441},"id":273},
 {"title":"Eglise Exaltation-Sainte-Croix Sainte-Croix-Quintillargues","position":{"lng":3.9087,"lat":43.7732},"id":274},
 {"title":"Chateau Saint-Genies-Fontedit","position":{"lng":3.177492,"lat":43.467865},"id":275},
 {"title":"Eglise Saint-Genies Saint-Genies-Fontedit","position":{"lng":3.179112,"lat":43.468223},"id":276},
 {"title":"Abbaye Saint-Pierre Nayran","position":{"lng":3.0414,"lat":43.6598},"id":277},
 {"title":"Abbaye Saint-Guilhem-Desert","position":{"lng":3.5489,"lat":43.7336},"id":278},
 {"title":"Eglise Saint-Laurent Saint-Guilhem-Desert","position":{"lng":3.553753,"lat":43.733368},"id":279},
 {"title":"Moulin Abbaye Saint-Guilhem-Desert","position":{"lng":3.5506,"lat":43.7267},"id":281},
 {"title":"Tour Prisons","position":{"lng":3.5521,"lat":43.7339},"id":282},
 {"title":"Eglise Decollation-Saint-Jean-Baptiste Saint-Jean-Blaquiere","position":{"lng":3.4233,"lat":43.7152},"id":283},
 {"title":"Eglise Nativite-Saint-Jean-Baptiste Saint-Jean-Bueges","position":{"lng":3.616492,"lat":43.828037},"id":284},
 {"title":"Eglise Nativite-Saint-Jean-Baptiste Saint-Jean-Cuculles","position":{"lng":3.835,"lat":43.752281},"id":285},
 {"title":"Atelier Potier Albe-Sabadel","position":{"lng":3.5514,"lat":43.7023},"id":286},
 {"title":"Eglise Saint-Jean-Baptiste Saint-Jean-Fos","position":{"lng":3.55234,"lat":43.70188},"id":287},
 {"title":"Pont Diable Aniane","position":{"lng":3.5574,"lat":43.7076},"id":288},
 {"title":"Eglise Saint-Julien Saint-Julien","position":{"lng":2.9304,"lat":43.5658},"id":289},
 {"title":"Croix Saint-Martin-Londres","position":{"lng":3.731,"lat":43.7914},"id":290},
 {"title":"Chateau Lebous","position":{"lng":3.852344,"lat":43.757302},"id":292},
 {"title":"Maison-atelier Paul Darde","position":{"lng":3.5199,"lat":43.8484},"id":293},
 {"title":"Eglise Saint-Pargoire Saint-Pargoire","position":{"lng":3.5185,"lat":43.5285},"id":294},
 {"title":"Eglise Sainte-Marie-Saint-Pons Saint-Pons-Mauchiens","position":{"lng":3.5136,"lat":43.5135},"id":295},
 {"title":"Maison Consuls Saint-Pons-Mauchiens","position":{"lng":3.5135,"lat":43.5137},"id":296},
 {"title":"Moulin Roquemengarde","position":{"lng":3.4793,"lat":43.5204},"id":297},
 {"title":"Cathedrale Saint-Pons Saint-Pons-Thomieres","position":{"lng":2.7589,"lat":43.4889},"id":298},
 {"title":"Eglise Saint-Martin-Jaur Saint-Pons-Thomieres","position":{"lng":2.758751,"lat":43.488016},"id":299},
 {"title":"Hotel Ville Saint-Pons-Thomieres","position":{"lng":2.7595,"lat":43.4883},"id":300},
 {"title":"Palais Episcopal Saint-Pons-Thomieres","position":{"lng":2.7593,"lat":43.4896},"id":301},
 {"title":"Dolmen Coste-Rouge Soumont","position":{"lng":3.3675,"lat":43.7325},"id":302},
 {"title":"Eglise Notre-Dame-Salces Saint-Privat","position":{"lng":3.436478,"lat":43.755861},"id":303},
 {"title":"Prieure Saint-Michel Grandmont","position":{"lng":3.3667,"lat":43.7334},"id":304},
 {"title":"Abbaye Saint-Thibery","position":{"lng":3.4173,"lat":43.3969},"id":305},
 {"title":"Eglise Saint-Thibery Saint-Thibery","position":{"lng":3.4177,"lat":43.3973},"id":306},
 {"title":"Pont Romain Saint-Thibery","position":{"lng":3.4328,"lat":43.3928},"id":307},
 {"title":"Eglise Saint-Vincent Saint-Vincent-Barbeyrargues","position":{"lng":3.876862,"lat":43.706627},"id":308},
 {"title":"Croix Cimetiere Saint-Vincent-Olargues","position":{"lng":2.8789,"lat":43.5607},"id":309},
 {"title":"Eglise Saint-Etienne-Cavall Salvetat-Agout","position":{"lng":2.7016,"lat":43.6099},"id":310},
 {"title":"Pont Saint-Etienne","position":{"lng":2.7027,"lat":43.6108},"id":311},
 {"title":"Eglise Saint-Etienne Saussines","position":{"lng":4.0557,"lat":43.764},"id":312},
 {"title":"Chapelle Notre-Dame Aleyrac","position":{"lng":3.905268,"lat":43.818053},"id":313},
 {"title":"Eglise Saint-Martin Sauteyrargues","position":{"lng":3.918973,"lat":43.838435},"id":314},
 {"title":"Collegiale Notre-Dame-Grace Serignan","position":{"lng":3.2843,"lat":43.2817},"id":315},
 {"title":"Eglise Saint-Julien-Sainte-Basilisse-Antioche Servian","position":{"lng":3.3,"lat":43.4272},"id":316},
 {"title":"Pont Thongue Servian","position":{"lng":3.3422,"lat":43.4054},"id":317},
 {"title":"Eglise decanale Saint-Louis Sete","position":{"lng":3.6944,"lat":43.3996},"id":318},
 {"title":"Entrepots Dubonnet Sete","position":{"lng":3.7174,"lat":43.4158},"id":319},
 {"title":"Fort Richelieu","position":{"lng":3.6924,"lat":43.3973},"id":320},
 {"title":"Redoute Castellas","position":{"lng":3.5761,"lat":43.3362},"id":321},
 {"title":"Theatre Municipal Moliere","position":{"lng":3.6981,"lat":43.4097},"id":323},
 {"title":"Chapelle Centheilles","position":{"lng":2.652614,"lat":43.328206},"id":324},
 {"title":"Eglise Saint-Baudile Siran","position":{"lng":2.6602,"lat":43.3121},"id":325},
 {"title":"Chateau Sorbs","position":{"lng":3.407401,"lat":43.892842},"id":326},
 {"title":"Croix Carrefour Sorbs","position":{"lng":3.4002,"lat":43.8899},"id":327},
 {"title":"Chateau Soubes","position":{"lng":3.34693,"lat":43.766649},"id":328},
 {"title":"Chateau Grandsagnes","position":{"lng":2.682863,"lat":43.522191},"id":329},
 {"title":"Eglise Saint-Baudile Soumont","position":{"lng":3.354703,"lat":43.727414},"id":330},
 {"title":"Eglise Saint-Martin Sussargues","position":{"lng":4.002843,"lat":43.713851},"id":331},
 {"title":"Eglise Saint-Saturnin Tourbes","position":{"lng":3.3802,"lat":43.4457},"id":332},
 {"title":"Eglise Notre-Dame-Assomption Boussagues","position":{"lng":3.1307,"lat":43.6525},"id":333},
 {"title":"Eglise Saint-Cyr et Sainte-Julite de Saint-Xist","position":{"lng":3.1571,"lat":43.6763},"id":334},
 {"title":"Four Chaux Tour-Orb","position":{"lng":3.1527,"lat":43.6487},"id":335},
 {"title":"Residence Abbes Joncels","position":{"lng":3.1491,"lat":43.656},"id":336},
 {"title":"Eglise Saint-Etienne Valros","position":{"lng":3.368374,"lat":43.419612},"id":337},
 {"title":"Eglise Saint-Pierre Vendemian","position":{"lng":3.56155,"lat":43.58068},"id":338},
 {"title":"Aqueduc Romain Vendres","position":{"lng":3.2326,"lat":43.2657},"id":339},
 {"title":"Chateau Vendres","position":{"lng":3.2252,"lat":43.2697},"id":340},
 {"title":"Villa Primuliac","position":{"lng":3.1999,"lat":43.295},"id":341},
 {"title":"Chateau Deveze","position":{"lng":4.1003,"lat":43.7047},"id":342},
 {"title":"Barrage-ecluse Vias","position":{"lng":3.4042,"lat":43.301},"id":343},
 {"title":"Chateau Preignes-Vieux","position":{"lng":3.3779,"lat":43.3266},"id":344},
 {"title":"Eglise Saint-Jean-Baptiste Vias","position":{"lng":3.4169,"lat":43.3125},"id":345},
 {"title":"Maison Benezis","position":{"lng":3.4189,"lat":43.3136},"id":346},
 {"title":"Eglise Sainte-Leocadie Vic-Gardiole","position":{"lng":3.7965,"lat":43.4906},"id":347},
 {"title":"Abbaye Villemagne","position":{"lng":3.118747,"lat":43.617731},"id":348},
 {"title":"Eglise Saint-Gregoire Villemagne-Argentiere","position":{"lng":3.119345,"lat":43.617277},"id":349},
 {"title":"Eglise Saint-Majan Villemagne-Argentiere","position":{"lng":3.1193,"lat":43.6176},"id":350},
 {"title":"Hotel Monnaies Villemagne-Argentiere","position":{"lng":3.11998,"lat":43.617552},"id":351},
 {"title":"Pont Diable Villemagne-Argentiere","position":{"lng":3.1244,"lat":43.6281},"id":352},
 {"title":"Eglise Invention-Saint-Etienne Villeneuve-Beziers","position":{"lng":3.28,"lat":43.3147},"id":353},
 {"title":"Cathedrale Saint-Pierre-Saint-Paul Maguelone","position":{"lng":3.8834,"lat":43.5123},"id":354},
 {"title":"Eglise Saint-Etienne Villeneuve-Maguelone","position":{"lng":3.864,"lat":43.5318},"id":355},
 {"title":"Manufacture Villeneuvette","position":{"lng":3.4004,"lat":43.6102},"id":357},
 {"title":"Oppidum Ambrussum","position":{"lng":4.1501,"lat":43.7156},"id":358},
 {"title":"Abbaye Valmagne","position":{"lng":3.5623,"lat":43.4869},"id":359},
 {"title":"Chateau Cambous","position":{"lng":3.7256,"lat":43.7542},"id":360}]